{"version": 0.6, "generator": "Overpass API 0.7.62.11 87bfad18", "osm3s": {"timestamp_osm_base": "2026-07-05T17:13:18Z", "copyright": "The data included in this document is from www.openstreetmap.org. The data is made available under ODbL."}, "elements": [{"type": "node", "id": 2920182909, "lat": 11.4370438, "lon": 9.136925}, {"type": "node", "id": 2920182910, "lat": 11.4370745, "lon": 9.1370471}, {"type": "node", "id": 2920182912, "lat": 11.4371577, "lon": 9.1370253}, {"type": "node", "id": 2952436725, "lat": 11.437127, "lon": 9.1369032}, {"type": "node", "id": 3060622675, "lat": 11.3030072, "lon": 9.5141733}, {"type": "node", "id": 3060720467, "lat": 11.3082828, "lon": 9.2498158, "tags": {"addr:district": "Ningi", "addr:full": "Balma, Ningi, Bauchi", "addr:municipality": "Balma", "addr:state": "Bauchi", "amenity": "hospital", "health_facility:type": "dispensary", "name": "Iyayi Dispensary", "operator:type": "public", "source": "ehealthafrica.org", "source:date": "2013"}}, {"type": "node", "id": 3060739269, "lat": 11.3231414, "lon": 9.1354413}, {"type": "node", "id": 3060739273, "lat": 11.3171986, "lon": 9.1183705}, {"type": "node", "id": 3060752957, "lat": 11.2793352, "lon": 9.4663774}, {"type": "node", "id": 3060752958, "lat": 11.2793657, "lon": 9.466439}, {"type": "node", "id": 3060752960, "lat": 11.2794109, "lon": 9.4664156}, {"type": "node", "id": 3060832448, "lat": 11.1596821, "lon": 9.1533755}, {"type": "node", "id": 3060968363, "lat": 11.1225412, "lon": 9.5143837}, {"type": "node", "id": 3061162377, "lat": 11.1224416, "lon": 9.5144059}, {"type": "node", "id": 3061162378, "lat": 11.1224978, "lon": 9.5145406}, {"type": "node", "id": 3061162380, "lat": 11.12259, "lon": 9.5145006}, {"type": "node", "id": 3061162518, "lat": 11.1596118, "lon": 9.1534145}, {"type": "node", "id": 3061162519, "lat": 11.1596403, "lon": 9.1534679}, {"type": "node", "id": 3061162522, "lat": 11.1597106, "lon": 9.1534289}, {"type": "node", "id": 7432626932, "lat": 11.3029178, "lon": 9.5141963}, {"type": "node", "id": 7432626933, "lat": 11.302935, "lon": 9.5142666}, {"type": "node", "id": 7432665996, "lat": 11.3232626, "lon": 9.1357743}, {"type": "node", "id": 7432665997, "lat": 11.3230086, "lon": 9.1358704}, {"type": "node", "id": 7432665998, "lat": 11.3228875, "lon": 9.1355374}, {"type": "node", "id": 7432675590, "lat": 11.3173052, "lon": 9.1186925}, {"type": "node", "id": 7432675591, "lat": 11.3170216, "lon": 9.1187901}, {"type": "node", "id": 7432675592, "lat": 11.316915, "lon": 9.1184682}, {"type": "node", "id": 9868044479, "lat": 11.2793804, "lon": 9.466354}, {"type": "node", "id": 9873089928, "lat": 11.1224911, "lon": 9.5144055}, {"type": "node", "id": 9873089929, "lat": 11.1224837, "lon": 9.5143877}, {"type": "node", "id": 9874348071, "lat": 11.3030371, "lon": 9.5142951}, {"type": "node", "id": 9874348072, "lat": 11.3029477, "lon": 9.514318}, {"type": "node", "id": 9897264999, "lat": 11.3459967, "lon": 9.3881925, "tags": {"amenity": "doctors", "source": "nigeriase4all.gov.ng", "source:date": "2022"}}, {"type": "way", "id": 288457763, "nodes": [2952436725, 2920182912, 2920182910, 2920182909, 2952436725], "tags": {"addr:district": "Takai", "addr:full": "Karfi, Takai, Kano", "addr:municipality": "Karfi", "addr:state": "KN", "amenity": "hospital", "building": "hospital", "health_facility:type": "dispensary", "healthcare": "hospital", "name": "Shawu Health Post", "source": "ehealthafrica.org"}}, {"type": "way", "id": 301909213, "nodes": [9868044479, 3060752960, 3060752958, 3060752957, 9868044479], "tags": {"addr:district": "Ningi", "addr:full": "Balma, Ningi, Bauchi", "addr:municipality": "Balma", "addr:state": "Bauchi", "amenity": "hospital", "health_facility:type": "dispensary", "healthcare": "hospital", "name": "Ruwan Kanki Dispensary", "operator:type": "public", "source": "Bing;ehealthafrica.org", "source:date": "2013"}}, {"type": "way", "id": 301941429, "nodes": [3060968363, 3061162380, 3061162378, 3061162377, 9873089929, 9873089928, 3060968363], "tags": {"addr:district": "Ningi", "addr:full": "Dingis, Ningi, Bauchi", "addr:municipality": "Dingis", "addr:state": "Bauchi", "amenity": "hospital", "building": "hospital", "health_facility:type": "dispensary", "healthcare": "hospital", "name": "Dingis Dispensary", "operator:type": "public", "source": "Bing;ehealthafrica.org", "source:date": "2013"}}, {"type": "way", "id": 301941450, "nodes": [3060832448, 3061162522, 3061162519, 3061162518, 3060832448], "tags": {"addr:district": "Ningi", "addr:full": "Kurmi, Ningi, Bauchi", "addr:municipality": "Kurmi", "addr:state": "Bauchi", "amenity": "hospital", "building": "hospital", "health_facility:type": "dispensary", "healthcare": "hospital", "name": "Ganji Dispensary", "operator:type": "public", "source": "Bing;ehealthafrica.org", "source:date": "2013"}}, {"type": "way", "id": 794663133, "nodes": [3060622675, 7432626932, 7432626933, 9874348072, 9874348071, 3060622675], "tags": {"addr:district": "Ningi", "addr:full": "Nasaru A, Ningi, Bauchi", "addr:municipality": "Nasaru A", "addr:state": "Bauchi", "amenity": "hospital", "health_facility:type": "dispensary", "healthcare": "hospital", "name": "Sharaf Dispensary", "operator:type": "public", "source": "ehealthafrica.org", "source:date": "2013"}}, {"type": "way", "id": 794666440, "nodes": [3060739269, 7432665996, 7432665997, 7432665998, 3060739269], "tags": {"addr:district": "Ningi", "addr:full": "Kafin Lemo, Ningi, Bauchi", "addr:municipality": "Kafin Lemo", "addr:state": "Bauchi", "amenity": "hospital", "health_facility:type": "dispensary", "healthcare": "hospital", "name": "Agwar Maje Maternity", "operator:type": "public", "source": "ehealthafrica.org", "source:date": "2013"}}, {"type": "way", "id": 794667023, "nodes": [3060739273, 7432675590, 7432675591, 7432675592, 3060739273], "tags": {"addr:district": "Ningi", "addr:full": "Kafin Lemo, Ningi, Bauchi", "addr:municipality": "Kafin Lemo", "addr:state": "Bauchi", "amenity": "hospital", "health_facility:type": "dispensary", "healthcare": "hospital", "name": "Shirgiya Health Clinic", "operator:type": "public", "source": "ehealthafrica.org", "source:date": "2013"}}]}